{"_id":"GA01","name":"Georgia Aquarium","address":"225 Baker St NW, Atlanta, GA 30313","state":"Georgia","coordinates":{"type":"Point","coordinates":[-84.394891,33.763424]}}
{"_id":"GA02","name":"World of Coca-Cola","address":"121 Baker St NW, Atlanta, GA 30313","state":"Georgia","coordinates":{"type":"Point","coordinates":[-84.392664,33.762742]}}
{"_id":"GA03","name":"Martin Luther King Jr. National History","address":"450 Auburn Ave NE, Atlanta, GA 30312","state":"Georgia","coordinates":{"type":"Point","coordinates":[-84.373376,33.756381]}}
{"_id":"GA04","name":"Centennial Olympic Park","address":"265 Park Avenue West, Atlanta, GA 30313","state":"Georgia","coordinates":{"type":"Point","coordinates":[-84.39451,33.761837]}}
{"_id":"GA05","name":"Fox Theatre","address":"660 Peachtree St NE, Atlanta, GA 30308","state":"Georgia","coordinates":{"type":"Point","coordinates":[-84.385561,33.772602]}}
{"_id":"GA06","name":"Forsyth Park","address":"Drayton St, Savannah, GA 31401","state":"Georgia","coordinates":{"type":"Point","coordinates":[-81.095388,32.066572]}}
{"_id":"GA07","name":"High Museum of Art","address":"1280 Peachtree St NE, Atlanta, GA 30309","state":"Georgia","coordinates":{"type":"Point","coordinates":[-84.384935,33.789158]}}
{"_id":"GA08","name":"CNN Center","address":"190 Marietta St NW, Atlanta, GA 30303","state":"Georgia","coordinates":{"type":"Point","coordinates":[-84.394976	,33.759083]}}
{"_id":"GA09","name":"Rock City","address":"1400 Patten Rd, Lookout Mountain, GA 30750","state":"Georgia","coordinates":{"type":"Point","coordinates":[-85.349582,34.973427]}}
{"_id":"GA10","name":"Bonaventure Cemetery","address":"330 Bonaventure Rd, Thunderbolt, GA 31404","state":"Georgia","coordinates":{"type":"Point","coordinates":[-81.05042,32.045074]}}
{"_id":"GA11","name":"Fort Pulaski National Monument","address":"US 80, Savannah, GA 31410","state":"Georgia","coordinates":{"type":"Point","coordinates":[-80.965899	,32.03161]}}
{"_id":"GA12","name":"Savannah Historic District","address":"301 Martin Luther King Jr Blvd, Savannah, GA 30334","state":"Georgia","coordinates":{"type":"Point","coordinates":[-81.099508,32.07614]}}
{"_id":"GA13","name":"National Center for Civil and Human Rights","address":"100 Ivan Allen Jr Blvd NW, Atlanta, GA 30313","state":"Georgia","coordinates":{"type":"Point","coordinates":[-84.393051,33.764055]}}
{"_id":"GA14","name":"Cathedral of St. John the Baptist","address":"222 E Harris St, Savannah, GA 31401","state":"Georgia","coordinates":{"type":"Point","coordinates":[-81.090932,32.073359]}}
{"_id":"GA15","name":"Margaret Mitchell House & Museum","address":"979 Crescent Ave NE, Atlanta, GA 30309","state":"Georgia","coordinates":{"type":"Point","coordinates":[-84.384582,33.78138]}}
{"_id":"GA16","name":"Atlanta Botanical Garden","address":"1345 Piedmont Ave NE, Atlanta, GA 30309","state":"Georgia","coordinates":{"type":"Point","coordinates":[-84.373858,33.790009]}}
{"_id":"GA17","name":"Fernbank Museum of Natural History","address":"767 Clifton Rd, Atlanta, GA 30307","state":"Georgia","coordinates":{"type":"Point","coordinates":[-84.327748,33.773917]}}
{"_id":"GA18","name":"College Football Hall of Fame","address":"250 Marietta St NW, Atlanta, GA 30313","state":"Georgia","coordinates":{"type":"Point","coordinates":[-84.395538,33.760193]}}
{"_id":"GA19","name":"Atlanta History Center","address":"130 West Paces Ferry Rd NW, Atlanta, GA 30305","state":"Georgia","coordinates":{"type":"Point","coordinates":[-84.385793,33.84131]}}
{"_id":"GA20","name":"Callaway Gardens","address":"Columbus, GA 30304","state":"Georgia","coordinates":{"type":"Point","coordinates":[-84.848313,32.854943]}}
{"_id":"GA21","name":"Mercer House","address":"429 Bull St, Savannah, GA 31401","state":"Georgia","coordinates":{"type":"Point","coordinates":[-81.095454,32.071375]}}
{"_id":"GA22","name":"Brasstown Bald","address":"","state":"Georgia","coordinates":{"type":"Point","coordinates":[-83.810907,34.874278]}}
{"_id":"GA23","name":"Oakland Cemetery","address":"248 Oakland Ave SE, Atlanta, GA 30312","state":"Georgia","coordinates":{"type":"Point","coordinates":[-84.373121,33.748727]}}
{"_id":"GA24","name":"Museum of Aviation","address":"1942 Heritage Blvd, Robins AFB, GA 31098","state":"Georgia","coordinates":{"type":"Point","coordinates":[-83.587858,32.59214]}}
{"_id":"GA25","name":"Zoo Atlanta","address":"800 Cherokee Ave SE, Atlanta, GA 30315","state":"Georgia","coordinates":{"type":"Point","coordinates":[-84.371335,33.732162]}}
{"_id":"GA26","name":"Stone Mountain","address":"","state":"Georgia","coordinates":{"type":"Point","coordinates":[-84.146014,33.80602]}}
{"_id":"GA27","name":"Owens-Thomas House","address":"124 Abercorn St, Savannah, GA 31401","state":"Georgia","coordinates":{"type":"Point","coordinates":[-81.08928,32.077381]}}
{"_id":"GA28","name":"Swan House","address":"Atlanta History Center, 130 West Paces Ferry Rd NW, Atlanta, GA 30305","state":"Georgia","coordinates":{"type":"Point","coordinates":[-84.387563,33.840433]}}
{"_id":"GA29","name":"National Civil War Naval Museum","address":"1002 Victory Dr, Columbus, GA 31901","state":"Georgia","coordinates":{"type":"Point","coordinates":[-84.979524,32.446854]}}
{"_id":"GA30","name":"Andersonville Nattional Historic Site","address":"760 POW Rd, Andersonville, GA 31711","state":"Georgia","coordinates":{"type":"Point","coordinates":[-84.127997,32.202315]}}
{"_id":"GA31","name":"Georgia Guidestones","address":"Hartwell Hwy, Elberton, GA 30635","state":"Georgia","coordinates":{"type":"Point","coordinates":[-82.885863,34.180119]}}
